{
  "type": "FeatureCollection",
  "generator": "overpass-turbo",
  "copyright": "The data included in this document is from www.openstreetmap.org. The data is made available under ODbL.",
  "timestamp": "2025-05-16T16:10:02Z",
  "features": [
    {
      "type": "Feature",
      "properties": {
        "@id": "way/589652301",
        "addr:city": "Dalat",
        "addr:housenumber": "124",
        "addr:street": "Ba Tháng Hai",
        "building": "yes",
        "name": "DALAT OPEN TOURS",
        "operator": "TNK TRAVEL",
        "shop": "travel_agency"
      },
      "geometry": {
        "type": "Polygon",
        "coordinates": [
          [
            [
              108.432435,
              11.9415715
            ],
            [
              108.4325072,
              11.9416107
            ],
            [
              108.4323664,
              11.941859
            ],
            [
              108.4322942,
              11.9418199
            ],
            [
              108.432435,
              11.9415715
            ]
          ]
        ]
      },
      "id": "way/589652301"
    },
    {
      "type": "Feature",
      "properties": {
        "@id": "way/694479627",
        "addr:housenumber": "218",
        "addr:street": "Đường Điện Biên Phủ",
        "building": "temple",
        "name": "Vietjetair",
        "shop": "travel_agency"
      },
      "geometry": {
        "type": "Polygon",
        "coordinates": [
          [
            [
              108.1964062,
              16.0660183
            ],
            [
              108.1963597,
              16.0660192
            ],
            [
              108.1963566,
              16.0658773
            ],
            [
              108.1964031,
              16.0658763
            ],
            [
              108.1964062,
              16.0660183
            ]
          ]
        ]
      },
      "id": "way/694479627"
    },
    {
      "type": "Feature",
      "properties": {
        "@id": "way/695895013",
        "building": "yes",
        "name": "Fiditour Travel",
        "shop": "travel_agency"
      },
      "geometry": {
        "type": "Polygon",
        "coordinates": [
          [
            [
              106.7027752,
              10.7745285
            ],
            [
              106.7026381,
              10.7743829
            ],
            [
              106.7027401,
              10.7742902
            ],
            [
              106.7028772,
              10.7744358
            ],
            [
              106.7027752,
              10.7745285
            ]
          ]
        ]
      },
      "id": "way/695895013"
    },
    {
      "type": "Feature",
      "properties": {
        "@id": "way/792193940",
        "building": "yes",
        "name": "Hoa Mai",
        "shop": "travel_agency"
      },
      "geometry": {
        "type": "Polygon",
        "coordinates": [
          [
            [
              107.0751573,
              10.3484364
            ],
            [
              107.0751029,
              10.3485716
            ],
            [
              107.0750691,
              10.3485596
            ],
            [
              107.0751202,
              10.3484229
            ],
            [
              107.0751573,
              10.3484364
            ]
          ]
        ]
      },
      "id": "way/792193940"
    },
    {
      "type": "Feature",
      "properties": {
        "@id": "way/1218469295",
        "addr:district": "Phú Hội",
        "addr:housenumber": "9 tổ 11",
        "addr:place": "Huế",
        "addr:postcode": "49000",
        "addr:street": "Lê Lợi kiet 66",
        "building": "yes",
        "check_date:opening_hours": "2023-10-26",
        "email": "guidetvn@gmail.com",
        "mobile": "+84 817 431 431",
        "name": "Hue Tours",
        "name:signed": "no",
        "note": "address needs correction",
        "opening_hours:signed": "no",
        "shop": "travel_agency",
        "website": "https://nguyen-tour.business.site"
      },
      "geometry": {
        "type": "Polygon",
        "coordinates": [
          [
            [
              107.5949394,
              16.4695785
            ],
            [
              107.5950339,
              16.4696384
            ],
            [
              107.59499,
              16.4697022
            ],
            [
              107.5948954,
              16.4696423
            ],
            [
              107.5949394,
              16.4695785
            ]
          ]
        ]
      },
      "id": "way/1218469295"
    },
    {
      "type": "Feature",
      "properties": {
        "@id": "node/542601018",
        "name": "Cuulong Tourist",
        "shop": "travel_agency",
        "source": "survey"
      },
      "geometry": {
        "type": "Point",
        "coordinates": [
          105.9714673,
          10.2579478
        ]
      },
      "id": "node/542601018"
    },
    {
      "type": "Feature",
      "properties": {
        "@id": "node/943230076",
        "name": "Đại Lý Bán Vé Máy Bay Việt Nam Airlines",
        "shop": "travel_agency"
      },
      "geometry": {
        "type": "Point",
        "coordinates": [
          106.711216,
          10.7899087
        ]
      },
      "id": "node/943230076"
    },
    {
      "type": "Feature",
      "properties": {
        "@id": "node/946794460",
        "name": "Thai Express",
        "shop": "travel_agency",
        "tourism": "information"
      },
      "geometry": {
        "type": "Point",
        "coordinates": [
          106.7056762,
          10.7817958
        ]
      },
      "id": "node/946794460"
    },
    {
      "type": "Feature",
      "properties": {
        "@id": "node/946794497",
        "name": "Du Lịch Hùng Vỹ",
        "shop": "travel_agency",
        "tourism": "information"
      },
      "geometry": {
        "type": "Point",
        "coordinates": [
          106.7099613,
          10.7890383
        ]
      },
      "id": "node/946794497"
    },
    {
      "type": "Feature",
      "properties": {
        "@id": "node/946794506",
        "name": "Du Lịch Miền Nam",
        "name:en": "South Travel",
        "shop": "travel_agency"
      },
      "geometry": {
        "type": "Point",
        "coordinates": [
          106.7070687,
          10.7644017
        ]
      },
      "id": "node/946794506"
    },
    {
      "type": "Feature",
      "properties": {
        "@id": "node/980136116",
        "name": "Công Ty Trách Nhiệm Hữu Hạn Một Thành Viên Dịch Vụ Du Lịch Công Đoàn Long An",
        "shop": "travel_agency"
      },
      "geometry": {
        "type": "Point",
        "coordinates": [
          106.4238793,
          10.5364364
        ]
      },
      "id": "node/980136116"
    },
    {
      "type": "Feature",
      "properties": {
        "@id": "node/980137127",
        "name": "Du Lịch Tư Siêng",
        "name:en": "Tu Sieng",
        "shop": "travel_agency"
      },
      "geometry": {
        "type": "Point",
        "coordinates": [
          106.4060212,
          10.5370931
        ]
      },
      "id": "node/980137127"
    },
    {
      "type": "Feature",
      "properties": {
        "@id": "node/980138584",
        "name": "Đại Lý Bán Vé Máy Bay Việt Nam Airlines",
        "shop": "travel_agency"
      },
      "geometry": {
        "type": "Point",
        "coordinates": [
          106.4131659,
          10.5414513
        ]
      },
      "id": "node/980138584"
    },
    {
      "type": "Feature",
      "properties": {
        "@id": "node/1150926585",
        "operator": "Vietnam Airlines",
        "shop": "travel_agency",
        "tourism": "information"
      },
      "geometry": {
        "type": "Point",
        "coordinates": [
          108.4332127,
          11.9364411
        ]
      },
      "id": "node/1150926585"
    },
    {
      "type": "Feature",
      "properties": {
        "@id": "node/1152316068",
        "name": "Phòng Vé Máy Bay",
        "name:en": "Air ticket",
        "shop": "travel_agency",
        "tourism": "information"
      },
      "geometry": {
        "type": "Point",
        "coordinates": [
          108.4460265,
          11.936627
        ]
      },
      "id": "node/1152316068"
    },
    {
      "type": "Feature",
      "properties": {
        "@id": "node/1152344978",
        "name": "Phòng Vé Máy Bay",
        "name:en": "Air ticket",
        "shop": "travel_agency",
        "tourism": "information"
      },
      "geometry": {
        "type": "Point",
        "coordinates": [
          108.4444983,
          11.9374222
        ]
      },
      "id": "node/1152344978"
    },
    {
      "type": "Feature",
      "properties": {
        "@id": "node/1555554590",
        "name": "Blue Swimmer Adventures",
        "shop": "travel_agency",
        "source": "survey"
      },
      "geometry": {
        "type": "Point",
        "coordinates": [
          107.0578831,
          20.7320601
        ]
      },
      "id": "node/1555554590"
    },
    {
      "type": "Feature",
      "properties": {
        "@id": "node/1939509184",
        "addr:city": "Cát Bà",
        "addr:housename": "Noble House",
        "addr:housenumber": "229",
        "addr:province": "Vietnam",
        "addr:street": "Đường 1/4",
        "building": "yes",
        "building:levels": "2",
        "leisure": "sports_centre",
        "name": "Cat Ba Local",
        "old_name": "Slo Pony Adventures",
        "shop": "travel_agency",
        "sport": "climbing;kayak;stand_up_paddling"
      },
      "geometry": {
        "type": "Point",
        "coordinates": [
          107.050286,
          20.7236391
        ]
      },
      "id": "node/1939509184"
    },
    {
      "type": "Feature",
      "properties": {
        "@id": "node/2068752777",
        "name": "GM Travel",
        "shop": "travel_agency"
      },
      "geometry": {
        "type": "Point",
        "coordinates": [
          109.1950953,
          12.2373614
        ]
      },
      "id": "node/2068752777"
    },
    {
      "type": "Feature",
      "properties": {
        "@id": "node/2068752802",
        "name": "Mir Tour",
        "name:de": "Mir Tour",
        "shop": "travel_agency"
      },
      "geometry": {
        "type": "Point",
        "coordinates": [
          109.1941333,
          12.2366426
        ]
      },
      "id": "node/2068752802"
    },
    {
      "type": "Feature",
      "properties": {
        "@id": "node/2069606520",
        "name": "Sea Crystal Tourist",
        "shop": "travel_agency"
      },
      "geometry": {
        "type": "Point",
        "coordinates": [
          109.193929,
          12.2362957
        ]
      },
      "id": "node/2069606520"
    },
    {
      "type": "Feature",
      "properties": {
        "@id": "node/2070423200",
        "addr:housenumber": "56",
        "name": "Nha Trang Smile Travel",
        "shop": "travel_agency"
      },
      "geometry": {
        "type": "Point",
        "coordinates": [
          109.1949045,
          12.2390074
        ]
      },
      "id": "node/2070423200"
    },
    {
      "type": "Feature",
      "properties": {
        "@id": "node/2076777568",
        "check_date": "2024-09-19",
        "name": "Vietnam Airlines",
        "name:de": "Vietnam Airlines",
        "shop": "travel_agency"
      },
      "geometry": {
        "type": "Point",
        "coordinates": [
          109.1945917,
          12.2348821
        ]
      },
      "id": "node/2076777568"
    },
    {
      "type": "Feature",
      "properties": {
        "@id": "node/2091401452",
        "name": "Hoi An Tickets",
        "shop": "travel_agency"
      },
      "geometry": {
        "type": "Point",
        "coordinates": [
          108.3263923,
          15.876802
        ]
      },
      "id": "node/2091401452"
    },
    {
      "type": "Feature",
      "properties": {
        "@id": "node/2092582340",
        "name": "Hoi An Tickets",
        "shop": "travel_agency"
      },
      "geometry": {
        "type": "Point",
        "coordinates": [
          108.3312547,
          15.8775227
        ]
      },
      "id": "node/2092582340"
    },
    {
      "type": "Feature",
      "properties": {
        "@id": "node/2092582372",
        "shop": "travel_agency"
      },
      "geometry": {
        "type": "Point",
        "coordinates": [
          108.2646519,
          16.0034039
        ]
      },
      "id": "node/2092582372"
    },
    {
      "type": "Feature",
      "properties": {
        "@id": "node/2136331315",
        "name": "Hoang Long",
        "shop": "travel_agency",
        "source": "survey"
      },
      "geometry": {
        "type": "Point",
        "coordinates": [
          106.6902109,
          20.8657497
        ]
      },
      "id": "node/2136331315"
    },
    {
      "type": "Feature",
      "properties": {
        "@id": "node/2495914595",
        "name": "cửa hàng xe máy phú hải thành",
        "shop": "travel_agency"
      },
      "geometry": {
        "type": "Point",
        "coordinates": [
          106.6657565,
          20.8619585
        ]
      },
      "id": "node/2495914595"
    },
    {
      "type": "Feature",
      "properties": {
        "@id": "node/2590496220",
        "brand": "Vietnam Airlines",
        "name": "Vietnam Airlines",
        "shop": "travel_agency"
      },
      "geometry": {
        "type": "Point",
        "coordinates": [
          103.9588579,
          10.2148988
        ]
      },
      "id": "node/2590496220"
    },
    {
      "type": "Feature",
      "properties": {
        "@id": "node/2598670021",
        "brand": "Vietnam Airlines",
        "name": "Du Lịch Vietnam Airlines",
        "shop": "travel_agency"
      },
      "geometry": {
        "type": "Point",
        "coordinates": [
          106.6676645,
          10.7677795
        ]
      },
      "id": "node/2598670021"
    },
    {
      "type": "Feature",
      "properties": {
        "@id": "node/2859940471",
        "addr:city": "Hanoï",
        "addr:country": "VN",
        "addr:housenumber": "1",
        "addr:street": "Hàng Buồm",
        "name": "Du Lịch Adventure Indochina",
        "phone": "+84 4 6683 5539",
        "shop": "travel_agency",
        "website": "https://www.adventureindochina.com/",
        "wheelchair": "yes"
      },
      "geometry": {
        "type": "Point",
        "coordinates": [
          105.8527852,
          21.0359602
        ]
      },
      "id": "node/2859940471"
    },
    {
      "type": "Feature",
      "properties": {
        "@id": "node/2946894267",
        "addr:city": "Hà Nội",
        "addr:country": "VN",
        "addr:housenumber": "08",
        "addr:postcode": "10000",
        "addr:street": "Đường Nguyễn Chí Thanh",
        "name": "Du Lịch Quốc Tế Đại Việt",
        "name:en": "GrandViet Tour",
        "note": "Trụ sở của công ty Du Lịch Quốc Tế Đại Việt - GrandViet Tour. Chuyên về các tour và dịch vụ du lịch, lưu trú, vận tải cho du khách trong và ngoài nước.",
        "phone": "+8443 7474 138",
        "shop": "travel_agency",
        "website": "https://dulichdaiviet.vn/"
      },
      "geometry": {
        "type": "Point",
        "coordinates": [
          105.8124578,
          21.0295631
        ]
      },
      "id": "node/2946894267"
    },
    {
      "type": "Feature",
      "properties": {
        "@id": "node/3312952761",
        "addr:city": "Dương Đông",
        "addr:postcode": "920000",
        "addr:province": "Kiến Giang",
        "name": "Jerry's Jungle Tours",
        "operator": "Jerry",
        "phone": "+84 93 822 60 21",
        "shop": "travel_agency",
        "website": "http://www.jerrystours.com",
        "wikidata": "Q146695",
        "wikipedia": "en:Phú Quốc"
      },
      "geometry": {
        "type": "Point",
        "coordinates": [
          103.9585031,
          10.2175098
        ]
      },
      "id": "node/3312952761"
    },
    {
      "type": "Feature",
      "properties": {
        "@id": "node/3797904542",
        "addr:city": "Hanoi",
        "addr:country": "VN",
        "addr:district": "Hoang Mai",
        "addr:housenumber": "912",
        "addr:province": "Vietnam",
        "addr:subdistrict": "No 4B",
        "level": "9",
        "name": "Công Ty Du Lịch Great La Vita",
        "shop": "travel_agency"
      },
      "geometry": {
        "type": "Point",
        "coordinates": [
          105.8304142,
          20.9640787
        ]
      },
      "id": "node/3797904542"
    },
    {
      "type": "Feature",
      "properties": {
        "@id": "node/4082426390",
        "addr:housenumber": "11",
        "addr:street": "Tôn Đàn",
        "name": "Booking Office",
        "shop": "travel_agency"
      },
      "geometry": {
        "type": "Point",
        "coordinates": [
          109.19626,
          12.237955
        ]
      },
      "id": "node/4082426390"
    },
    {
      "type": "Feature",
      "properties": {
        "@id": "node/4139858489",
        "addr:street": "Đường Ðề Thám",
        "name": "Du Lịch The Sinh",
        "name:de": "The Sinh Tourist",
        "name:ko": "신투어리스트",
        "shop": "travel_agency",
        "website": "http://www.thesinhtourist.vn"
      },
      "geometry": {
        "type": "Point",
        "coordinates": [
          106.6935296,
          10.7683471
        ]
      },
      "id": "node/4139858489"
    },
    {
      "type": "Feature",
      "properties": {
        "@id": "node/4150425791",
        "addr:country": "VN",
        "addr:housenumber": "35",
        "addr:street": "Hang Giay",
        "name": "Du Lịch Ethnic",
        "phone": "+84439261951",
        "shop": "travel_agency",
        "website": "www.ethnictravel.com.vn"
      },
      "geometry": {
        "type": "Point",
        "coordinates": [
          105.851339,
          21.0348735
        ]
      },
      "id": "node/4150425791"
    },
    {
      "type": "Feature",
      "properties": {
        "@id": "node/4151786600",
        "name": "Danang Visitor Center",
        "name:en": "Danang Visitor Center - Tourist Information",
        "shop": "travel_agency"
      },
      "geometry": {
        "type": "Point",
        "coordinates": [
          108.2249522,
          16.0684878
        ]
      },
      "id": "node/4151786600"
    },
    {
      "type": "Feature",
      "properties": {
        "@id": "node/4153286091",
        "highway": "bus_stop",
        "name": "Trạm Xe Bus Vietnam Airlines Minibus",
        "public_transport": "platform",
        "shop": "travel_agency"
      },
      "geometry": {
        "type": "Point",
        "coordinates": [
          105.8499938,
          21.0262081
        ]
      },
      "id": "node/4153286091"
    },
    {
      "type": "Feature",
      "properties": {
        "@id": "node/4180461389",
        "addr:housenumber": "16",
        "addr:street": "Ngõ Huyện",
        "name": "Du Lịch Lily's",
        "name:en": "See You At Lily's Hostel and Travel",
        "shop": "travel_agency"
      },
      "geometry": {
        "type": "Point",
        "coordinates": [
          105.8487217,
          21.0295942
        ]
      },
      "id": "node/4180461389"
    },
    {
      "type": "Feature",
      "properties": {
        "@id": "node/4183850095",
        "addr:housenumber": "220",
        "addr:street": "Đường Ðề Thám",
        "name": "Du Lịch TNK",
        "name:de": "TNK Travel",
        "shop": "travel_agency"
      },
      "geometry": {
        "type": "Point",
        "coordinates": [
          106.6940237,
          10.7675725
        ]
      },
      "id": "node/4183850095"
    },
    {
      "type": "Feature",
      "properties": {
        "@id": "node/4216687889",
        "name": "Ferry",
        "shop": "travel_agency"
      },
      "geometry": {
        "type": "Point",
        "coordinates": [
          106.1087053,
          10.2438949
        ]
      },
      "id": "node/4216687889"
    },
    {
      "type": "Feature",
      "properties": {
        "@id": "node/4237236696",
        "name": "Bao Tranh Travel Open Bus",
        "shop": "travel_agency"
      },
      "geometry": {
        "type": "Point",
        "coordinates": [
          107.5935003,
          16.4654017
        ]
      },
      "id": "node/4237236696"
    },
    {
      "type": "Feature",
      "properties": {
        "@id": "node/4246128906",
        "name": "Tours, bicycle and scooter rental",
        "shop": "travel_agency"
      },
      "geometry": {
        "type": "Point",
        "coordinates": [
          106.3737741,
          10.2344897
        ]
      },
      "id": "node/4246128906"
    },
    {
      "type": "Feature",
      "properties": {
        "@id": "node/4256260391",
        "addr:housenumber": "159",
        "addr:street": "Đường Phạm Ngũ Lão",
        "email": "tn.diamondtravel@gmail.com",
        "name": "Du Lịch Trung Nam",
        "phone": "0866825612",
        "shop": "travel_agency",
        "website": "www.trungnamtourist.vn"
      },
      "geometry": {
        "type": "Point",
        "coordinates": [
          106.6944326,
          10.7691149
        ]
      },
      "id": "node/4256260391"
    },
    {
      "type": "Feature",
      "properties": {
        "@id": "node/4259774590",
        "shop": "travel_agency"
      },
      "geometry": {
        "type": "Point",
        "coordinates": [
          109.1949742,
          12.2331965
        ]
      },
      "id": "node/4259774590"
    },
    {
      "type": "Feature",
      "properties": {
        "@id": "node/4259787793",
        "name": "Nhà Xe Minh Quốc",
        "name:en": "Minh Quoc Bus Station",
        "shop": "travel_agency"
      },
      "geometry": {
        "type": "Point",
        "coordinates": [
          108.00158,
          14.346183
        ]
      },
      "id": "node/4259787793"
    },
    {
      "type": "Feature",
      "properties": {
        "@id": "node/4259838290",
        "shop": "travel_agency"
      },
      "geometry": {
        "type": "Point",
        "coordinates": [
          109.19345,
          12.239017
        ]
      },
      "id": "node/4259838290"
    },
    {
      "type": "Feature",
      "properties": {
        "@id": "node/4273072590",
        "shop": "travel_agency"
      },
      "geometry": {
        "type": "Point",
        "coordinates": [
          105.851346,
          21.0358291
        ]
      },
      "id": "node/4273072590"
    },
    {
      "type": "Feature",
      "properties": {
        "@id": "node/4295430592",
        "addr:housenumber": "18C",
        "addr:street": "Trần Hưng Đạo",
        "name": "Viet Nhat Bus",
        "phone": "0583524707",
        "shop": "travel_agency"
      },
      "geometry": {
        "type": "Point",
        "coordinates": [
          109.1945848,
          12.2448446
        ]
      },
      "id": "node/4295430592"
    },
    {
      "type": "Feature",
      "properties": {
        "@id": "node/4295432191",
        "addr:country": "VN",
        "addr:housenumber": "17",
        "addr:street": "Lương Văn Can",
        "name": "The Sinh Cafe Tourist",
        "shop": "travel_agency"
      },
      "geometry": {
        "type": "Point",
        "coordinates": [
          105.8501772,
          21.0335885
        ]
      },
      "id": "node/4295432191"
    },
    {
      "type": "Feature",
      "properties": {
        "@id": "node/4295590991",
        "addr:city": "Hà Nội",
        "addr:district": "Hoàn Kiếm",
        "addr:housenumber": "1A",
        "addr:postcode": "100000",
        "addr:province": "Hà Nội",
        "addr:street": "Phố Mã Mây",
        "addr:subdistrict": "Hang Buồm",
        "email": "atmtravelagency@gmail.com",
        "name": "ATM Travel Agency",
        "operator": "Travel Company",
        "shop": "travel_agency",
        "website": "http://www.atmtravelagenc.com"
      },
      "geometry": {
        "type": "Point",
        "coordinates": [
          105.852858,
          21.0361142
        ]
      },
      "id": "node/4295590991"
    },
    {
      "type": "Feature",
      "properties": {
        "@id": "node/4297631495",
        "name": "Jack Tran's Eco Tours",
        "shop": "travel_agency"
      },
      "geometry": {
        "type": "Point",
        "coordinates": [
          108.3889281,
          15.8764942
        ]
      },
      "id": "node/4297631495"
    },
    {
      "type": "Feature",
      "properties": {
        "@id": "node/4301730817",
        "addr:city": "Ho Chi Minh City",
        "addr:district": "Q1",
        "addr:housenumber": "129",
        "addr:postcode": "00084",
        "addr:street": "Nguyễn Huệ",
        "addr:subdistrict": "Ben Nghe",
        "name": "Du Lịch Fiditour",
        "shop": "travel_agency"
      },
      "geometry": {
        "type": "Point",
        "coordinates": [
          106.7018622,
          10.7739725
        ]
      },
      "id": "node/4301730817"
    },
    {
      "type": "Feature",
      "properties": {
        "@id": "node/4312804092",
        "name": "Dich Vu Dulich - Vu Huong - Minibus to Nha Trang",
        "shop": "travel_agency"
      },
      "geometry": {
        "type": "Point",
        "coordinates": [
          108.4381455,
          11.9388831
        ]
      },
      "id": "node/4312804092"
    },
    {
      "type": "Feature",
      "properties": {
        "@id": "node/4315288305",
        "shop": "travel_agency"
      },
      "geometry": {
        "type": "Point",
        "coordinates": [
          106.3636636,
          10.3523555
        ]
      },
      "id": "node/4315288305"
    },
    {
      "type": "Feature",
      "properties": {
        "@id": "node/4321342195",
        "name": "Sinh travel",
        "shop": "travel_agency"
      },
      "geometry": {
        "type": "Point",
        "coordinates": [
          105.8470898,
          21.0335895
        ]
      },
      "id": "node/4321342195"
    },
    {
      "type": "Feature",
      "properties": {
        "@id": "node/4323261191",
        "name": "Sinh cafe tourist",
        "shop": "travel_agency"
      },
      "geometry": {
        "type": "Point",
        "coordinates": [
          105.8519882,
          21.0328605
        ]
      },
      "id": "node/4323261191"
    },
    {
      "type": "Feature",
      "properties": {
        "@id": "node/4333466202",
        "addr:street": "Phan Châu Trinh",
        "shop": "travel_agency"
      },
      "geometry": {
        "type": "Point",
        "coordinates": [
          108.3310683,
          15.8786432
        ]
      },
      "id": "node/4333466202"
    },
    {
      "type": "Feature",
      "properties": {
        "@id": "node/4333473417",
        "addr:street": "Trần Phú",
        "name": "Trần Phú",
        "shop": "travel_agency"
      },
      "geometry": {
        "type": "Point",
        "coordinates": [
          108.3287799,
          15.8771746
        ]
      },
      "id": "node/4333473417"
    },
    {
      "type": "Feature",
      "properties": {
        "@id": "node/4345609589",
        "shop": "travel_agency"
      },
      "geometry": {
        "type": "Point",
        "coordinates": [
          104.9783681,
          22.8169939
        ]
      },
      "id": "node/4345609589"
    },
    {
      "type": "Feature",
      "properties": {
        "@id": "node/4382897391",
        "addr:country": "VN",
        "addr:housenumber": "46",
        "addr:street": "Gia Ngư",
        "name:en": "Cuong's Motorbike Adventure",
        "phone": "+84439261534",
        "shop": "travel_agency"
      },
      "geometry": {
        "type": "Point",
        "coordinates": [
          105.8520233,
          21.033123
        ]
      },
      "id": "node/4382897391"
    },
    {
      "type": "Feature",
      "properties": {
        "@id": "node/4403988545",
        "addr:city": "Ho Chi Minh City",
        "addr:district": "10",
        "addr:housenumber": "7B",
        "addr:postcode": "700000",
        "addr:street": "Thành Thái",
        "addr:subdistrict": "Ward 14",
        "name": "Du Lịch Saigon Tour",
        "opening_hours": "Mo-Su 08:00-22:30",
        "operator": "Saigon Buddy Tours",
        "phone": "+84 168 724 8520",
        "shop": "travel_agency",
        "website": "http://saigonbuddytours.com/"
      },
      "geometry": {
        "type": "Point",
        "coordinates": [
          106.667087,
          10.7681327
        ]
      },
      "id": "node/4403988545"
    },
    {
      "type": "Feature",
      "properties": {
        "@id": "node/4424483890",
        "name": "Vietjet Air Booking Office",
        "name:vi": "Vietjet Air Booking Office",
        "shop": "travel_agency"
      },
      "geometry": {
        "type": "Point",
        "coordinates": [
          105.8543574,
          21.0204093
        ]
      },
      "id": "node/4424483890"
    },
    {
      "type": "Feature",
      "properties": {
        "@id": "node/4424677292",
        "shop": "travel_agency"
      },
      "geometry": {
        "type": "Point",
        "coordinates": [
          105.8490197,
          21.0297256
        ]
      },
      "id": "node/4424677292"
    },
    {
      "type": "Feature",
      "properties": {
        "@id": "node/4437513192",
        "name": "Du Lịch Ethnic",
        "shop": "travel_agency"
      },
      "geometry": {
        "type": "Point",
        "coordinates": [
          105.8524751,
          21.0379379
        ]
      },
      "id": "node/4437513192"
    },
    {
      "type": "Feature",
      "properties": {
        "@id": "node/4442095890",
        "addr:housenumber": "53",
        "addr:postcode": "670000",
        "addr:street": "Tô Hiến Thành",
        "email": "contact@dalattrip.com",
        "name": "Cty TNHH Hành Trình Đà Lạt",
        "name:en": "Dalat Trip Ltd",
        "name:vi": "Cty TNHH Hành Trình Đà Lạt",
        "opening_hours": "Mo-Su 21:00-06:00",
        "phone": "0633516888",
        "shop": "travel_agency",
        "website": "https://www.dalattrip.com/"
      },
      "geometry": {
        "type": "Point",
        "coordinates": [
          108.4453373,
          11.928172
        ]
      },
      "id": "node/4442095890"
    },
    {
      "type": "Feature",
      "properties": {
        "@id": "node/4452658989",
        "name": "JetstarPasific",
        "name:vi": "JetstarPasific",
        "shop": "travel_agency"
      },
      "geometry": {
        "type": "Point",
        "coordinates": [
          107.0886105,
          10.3659233
        ]
      },
      "id": "node/4452658989"
    },
    {
      "type": "Feature",
      "properties": {
        "@id": "node/4470369690",
        "addr:housenumber": "223",
        "addr:street": "Đường 1/4",
        "building": "yes",
        "name": "Cat Ba Ventures",
        "name:vi": "Cat Ba Ventures",
        "shop": "travel_agency",
        "website": "https://catbaventures.com/"
      },
      "geometry": {
        "type": "Point",
        "coordinates": [
          107.0499198,
          20.7243115
        ]
      },
      "id": "node/4470369690"
    },
    {
      "type": "Feature",
      "properties": {
        "@id": "node/4481179196",
        "name": "Du lịch Tầm Nhìn Mở",
        "name:en": "Vzn Travel Agency",
        "name:vi": "Du lịch Tầm Nhìn Mở",
        "shop": "travel_agency"
      },
      "geometry": {
        "type": "Point",
        "coordinates": [
          105.0123516,
          22.8368647
        ]
      },
      "id": "node/4481179196"
    },
    {
      "type": "Feature",
      "properties": {
        "@id": "node/4487124289",
        "addr:postcode": "380000",
        "addr:street": "võ nguyên giaps",
        "email": "dulichdienbien.online@gmail.com",
        "name": "Tam Tam travel",
        "opening_hours": "24/7",
        "phone": "02303501699",
        "shop": "travel_agency",
        "website": "http://facebook.com/tamtamtravel.dienbienphu"
      },
      "geometry": {
        "type": "Point",
        "coordinates": [
          103.0239674,
          21.402508
        ]
      },
      "id": "node/4487124289"
    },
    {
      "type": "Feature",
      "properties": {
        "@id": "node/4533014590",
        "addr:housenumber": "30/3",
        "addr:postcode": "00000",
        "addr:street": "Lê lợi",
        "email": "Ngoc64334@gmail.com",
        "name": "P. Đề thám, TP Thái bình",
        "name:en": "Việt nam",
        "name:vi": "P. Đề thám, TP Thái bình",
        "phone": "0915991289",
        "shop": "travel_agency"
      },
      "geometry": {
        "type": "Point",
        "coordinates": [
          106.3410838,
          20.4484904
        ]
      },
      "id": "node/4533014590"
    },
    {
      "type": "Feature",
      "properties": {
        "@id": "node/4533631589",
        "addr:postcode": "00000",
        "addr:street": "QL 39",
        "email": "dvien29@gmail.com",
        "name": "Nguyên xá, Đông hưng, Thái bình",
        "name:vi": "Nguyên xá, Đông hưng, Thái bình",
        "phone": "0915863368",
        "shop": "travel_agency"
      },
      "geometry": {
        "type": "Point",
        "coordinates": [
          106.3491844,
          20.5560224
        ]
      },
      "id": "node/4533631589"
    },
    {
      "type": "Feature",
      "properties": {
        "@id": "node/4550175292",
        "shop": "travel_agency"
      },
      "geometry": {
        "type": "Point",
        "coordinates": [
          106.6973398,
          10.7735331
        ]
      },
      "id": "node/4550175292"
    },
    {
      "type": "Feature",
      "properties": {
        "@id": "node/4557010331",
        "addr:country": "VN",
        "addr:housenumber": "13",
        "addr:street": "Ngõ Hàng Hương",
        "name": "ODC travel",
        "name:en": "ODC Vietnam",
        "shop": "travel_agency"
      },
      "geometry": {
        "type": "Point",
        "coordinates": [
          105.8454798,
          21.0352461
        ]
      },
      "id": "node/4557010331"
    },
    {
      "type": "Feature",
      "properties": {
        "@id": "node/4557132292",
        "name": "Du Lịch Thành Công",
        "name:en": "Thanh cong travel",
        "name:vi": "Thanh cong travel",
        "shop": "travel_agency"
      },
      "geometry": {
        "type": "Point",
        "coordinates": [
          106.6943605,
          10.7690993
        ]
      },
      "id": "node/4557132292"
    },
    {
      "type": "Feature",
      "properties": {
        "@id": "node/4579058889",
        "name:en": "Inter Bus Lines",
        "shop": "travel_agency"
      },
      "geometry": {
        "type": "Point",
        "coordinates": [
          103.8504297,
          22.3377082
        ]
      },
      "id": "node/4579058889"
    },
    {
      "type": "Feature",
      "properties": {
        "@id": "node/4594668689",
        "email": "mekongsongtien@gmail.com",
        "name": "Cty DL Mekông Sông Tiền",
        "opening_hours": "Mo-Su 08:00-16:00",
        "phone": "0903086969",
        "shop": "travel_agency",
        "website": "http://Mekongsongtien.com"
      },
      "geometry": {
        "type": "Point",
        "coordinates": [
          106.360176,
          10.341089
        ]
      },
      "id": "node/4594668689"
    },
    {
      "type": "Feature",
      "properties": {
        "@id": "node/4599051589",
        "name": "Mekong Tour",
        "name:vi": "Mekong Tour",
        "shop": "travel_agency"
      },
      "geometry": {
        "type": "Point",
        "coordinates": [
          105.7876427,
          10.0307085
        ]
      },
      "id": "node/4599051589"
    },
    {
      "type": "Feature",
      "properties": {
        "@id": "node/4611212790",
        "addr:street": "Nguyễn Công Trứ",
        "name": "Ferry Ticket Office",
        "name:en": "Ferry Ticket Office",
        "name:vi": "Ferry Ticket Office",
        "shop": "travel_agency"
      },
      "geometry": {
        "type": "Point",
        "coordinates": [
          105.0790789,
          10.0112694
        ]
      },
      "id": "node/4611212790"
    },
    {
      "type": "Feature",
      "properties": {
        "@id": "node/4612104689",
        "addr:housenumber": "34",
        "addr:street": "Mạc Thị Bưởi",
        "name": "Du Lịch Nam Trip",
        "shop": "travel_agency"
      },
      "geometry": {
        "type": "Point",
        "coordinates": [
          106.7049251,
          10.7756897
        ]
      },
      "id": "node/4612104689"
    },
    {
      "type": "Feature",
      "properties": {
        "@id": "node/4612116604",
        "shop": "travel_agency"
      },
      "geometry": {
        "type": "Point",
        "coordinates": [
          106.7286506,
          10.8134959
        ]
      },
      "id": "node/4612116604"
    },
    {
      "type": "Feature",
      "properties": {
        "@id": "node/4613616090",
        "name": "Thanh tam travel",
        "name:vi": "Hue",
        "shop": "travel_agency"
      },
      "geometry": {
        "type": "Point",
        "coordinates": [
          107.5833715,
          16.467519
        ]
      },
      "id": "node/4613616090"
    },
    {
      "type": "Feature",
      "properties": {
        "@id": "node/4619676489",
        "addr:street": "56 Dong Ho, KP 1, Phuong Dong, Ho, Tx. Ha Tien, Kien Giang",
        "email": "info@hatienmekongtravel.com",
        "name": "Ha Tien Mekong Travel",
        "name:en": "Ha Tien Mekong Travel",
        "name:vi": "Ha Tien Mekong Travel",
        "phone": "+84 0982 952 963",
        "shop": "travel_agency",
        "website": "http://www.hatienmekongtravel.com"
      },
      "geometry": {
        "type": "Point",
        "coordinates": [
          104.4902452,
          10.3821265
        ]
      },
      "id": "node/4619676489"
    },
    {
      "type": "Feature",
      "properties": {
        "@id": "node/4627346590",
        "addr:city": "Hà Nội",
        "addr:country": "VN",
        "addr:housenumber": "62",
        "addr:street": "Hàng Buồm",
        "email": "sidney@friendstravelvietnam.com",
        "name": "Du Lịch Friends",
        "opening_hours": "Mo-Su 07:00-19:00",
        "phone": "+84904329289",
        "shop": "travel_agency",
        "website": "https://www.friendstravelvietnam.com/"
      },
      "geometry": {
        "type": "Point",
        "coordinates": [
          105.8514679,
          21.0358698
        ]
      },
      "id": "node/4627346590"
    },
    {
      "type": "Feature",
      "properties": {
        "@id": "node/4643633492",
        "addr:housenumber": "232-234",
        "addr:street": "Tây Sơn",
        "name": "Sơn Tùng",
        "name:vi": "Sơn Tùng",
        "phone": "1900555523",
        "shop": "travel_agency",
        "website": "https://xechatluongcaosontung.vn/"
      },
      "geometry": {
        "type": "Point",
        "coordinates": [
          109.2095811,
          13.7539851
        ]
      },
      "id": "node/4643633492"
    },
    {
      "type": "Feature",
      "properties": {
        "@id": "node/4668846589",
        "email": "contact@oxalisadventure.com",
        "name:en": "Oxalis - Tu lan caving adventure",
        "operator": "Oxalis",
        "phone": "+84 919900357",
        "shop": "travel_agency",
        "website": "https://oxalisadventure.com/"
      },
      "geometry": {
        "type": "Point",
        "coordinates": [
          106.050519,
          17.7692157
        ]
      },
      "id": "node/4668846589"
    },
    {
      "type": "Feature",
      "properties": {
        "@id": "node/4674130689",
        "name:en": "Golf Asian",
        "shop": "travel_agency"
      },
      "geometry": {
        "type": "Point",
        "coordinates": [
          108.2214171,
          16.0798115
        ]
      },
      "id": "node/4674130689"
    },
    {
      "type": "Feature",
      "properties": {
        "@id": "node/4684941489",
        "name": "Du Lịch Viettourist",
        "name:en": "VIETTOURIST",
        "name:vi": "VIETTOURIST",
        "shop": "travel_agency"
      },
      "geometry": {
        "type": "Point",
        "coordinates": [
          106.704074,
          10.7646198
        ]
      },
      "id": "node/4684941489"
    },
    {
      "type": "Feature",
      "properties": {
        "@id": "node/4694445504",
        "name:en": "Jetstar",
        "shop": "travel_agency"
      },
      "geometry": {
        "type": "Point",
        "coordinates": [
          105.8499999,
          21.0265279
        ]
      },
      "id": "node/4694445504"
    },
    {
      "type": "Feature",
      "properties": {
        "@id": "node/4695120290",
        "name:en": "Rung Thieng Jungle Travel",
        "phone": "0905533521",
        "shop": "travel_agency"
      },
      "geometry": {
        "type": "Point",
        "coordinates": [
          108.3235288,
          15.8785924
        ]
      },
      "id": "node/4695120290"
    },
    {
      "type": "Feature",
      "properties": {
        "@id": "node/4697048190",
        "addr:city": "Hà Nội",
        "addr:housenumber": "74",
        "addr:street": "Hàng Bạc",
        "description": "Provide walking and scooter food tours.",
        "name": "Du Lịch Hanoi Street Food Tour",
        "name:en": "Hanoi Street Food Tour",
        "operator": "Kim Tours's Building",
        "phone": "0966 960 188",
        "shop": "travel_agency",
        "website": "https://www.hanoistreetfoodtour.com/"
      },
      "geometry": {
        "type": "Point",
        "coordinates": [
          105.8521332,
          21.0339986
        ]
      },
      "id": "node/4697048190"
    },
    {
      "type": "Feature",
      "properties": {
        "@id": "node/4698583792",
        "addr:street": "Nguyễn Thị Minh Khai",
        "email": "biendaotour@yahoo.com",
        "name:en": "Bien Dao Tour",
        "opening_hours": "Mo-Su 07:30-22:00",
        "phone": "0583526494",
        "shop": "travel_agency",
        "website": "https://www.biendaotour.com/"
      },
      "geometry": {
        "type": "Point",
        "coordinates": [
          109.1962571,
          12.2386436
        ]
      },
      "id": "node/4698583792"
    },
    {
      "type": "Feature",
      "properties": {
        "@id": "node/4700615800",
        "addr:street": "Đường Bùi Viện",
        "name:en": "Air Asia official ticket sales shop",
        "shop": "travel_agency"
      },
      "geometry": {
        "type": "Point",
        "coordinates": [
          106.693229,
          10.7671287
        ]
      },
      "id": "node/4700615800"
    },
    {
      "type": "Feature",
      "properties": {
        "@id": "node/4704577089",
        "addr:housenumber": "10",
        "addr:street": "Hàng Buồm",
        "email": "info@getupandgovietnam.com",
        "name": "Du Lịch Get Up And Go",
        "name:de": "Get up and Go",
        "shop": "travel_agency",
        "website": "https://getupandgovietnam.com/"
      },
      "geometry": {
        "type": "Point",
        "coordinates": [
          105.8526831,
          21.0360042
        ]
      },
      "id": "node/4704577089"
    },
    {
      "type": "Feature",
      "properties": {
        "@id": "node/4708273389",
        "name:en": "Vina Travel",
        "shop": "travel_agency"
      },
      "geometry": {
        "type": "Point",
        "coordinates": [
          106.6909599,
          10.7677097
        ]
      },
      "id": "node/4708273389"
    },
    {
      "type": "Feature",
      "properties": {
        "@id": "node/4710377692",
        "name": "EcoTour",
        "name:vi": "EcoTour",
        "shop": "travel_agency"
      },
      "geometry": {
        "type": "Point",
        "coordinates": [
          105.7879424,
          10.0309399
        ]
      },
      "id": "node/4710377692"
    },
    {
      "type": "Feature",
      "properties": {
        "@id": "node/4710428790",
        "name": "EcoTour",
        "name:vi": "EcoTour",
        "shop": "travel_agency"
      },
      "geometry": {
        "type": "Point",
        "coordinates": [
          105.7880395,
          10.0315983
        ]
      },
      "id": "node/4710428790"
    },
    {
      "type": "Feature",
      "properties": {
        "@id": "node/4730355191",
        "name": "Aaaaaa",
        "name:vi": "Aaaaaa",
        "shop": "travel_agency"
      },
      "geometry": {
        "type": "Point",
        "coordinates": [
          108.1168219,
          10.9381309
        ]
      },
      "id": "node/4730355191"
    },
    {
      "type": "Feature",
      "properties": {
        "@id": "node/4731257222",
        "name:en": "Camel Travel",
        "shop": "travel_agency"
      },
      "geometry": {
        "type": "Point",
        "coordinates": [
          108.2200519,
          16.0850682
        ]
      },
      "id": "node/4731257222"
    },
    {
      "type": "Feature",
      "properties": {
        "@id": "node/4731257223",
        "name:en": "Queen",
        "shop": "travel_agency"
      },
      "geometry": {
        "type": "Point",
        "coordinates": [
          108.2196985,
          16.0852477
        ]
      },
      "id": "node/4731257223"
    },
    {
      "type": "Feature",
      "properties": {
        "@id": "node/4731263722",
        "name:en": "Ban Ve Xe Du Lich",
        "shop": "travel_agency"
      },
      "geometry": {
        "type": "Point",
        "coordinates": [
          108.2201096,
          16.0852705
        ]
      },
      "id": "node/4731263722"
    },
    {
      "type": "Feature",
      "properties": {
        "@id": "node/4732100621",
        "name": "Highland holiday tours",
        "name:vi": "Highland holiday tours",
        "shop": "travel_agency"
      },
      "geometry": {
        "type": "Point",
        "coordinates": [
          108.4353623,
          11.9433253
        ]
      },
      "id": "node/4732100621"
    },
    {
      "type": "Feature",
      "properties": {
        "@id": "node/4737430222",
        "name": "đường vào ubnd xã sông cầu",
        "shop": "travel_agency"
      },
      "geometry": {
        "type": "Point",
        "coordinates": [
          108.9448736,
          12.2697786
        ]
      },
      "id": "node/4737430222"
    },
    {
      "type": "Feature",
      "properties": {
        "@id": "node/4741641737",
        "addr:housenumber": "170-172",
        "addr:postcode": "70000",
        "addr:street": "Nam Kỳ Khởi Nghĩa",
        "name": "Du Lịch TransViet",
        "name:en": "TransViet Travel",
        "name:vi": "TransViet Travel",
        "phone": "+84839330777",
        "shop": "travel_agency",
        "website": "https://www.transviet.com.vn/"
      },
      "geometry": {
        "type": "Point",
        "coordinates": [
          106.6945892,
          10.7800871
        ]
      },
      "id": "node/4741641737"
    },
    {
      "type": "Feature",
      "properties": {
        "@id": "node/4746797222",
        "name": "Du Lịch Thử Thách Việt",
        "name:en": "Viet Challenge Tours",
        "name:vi": "Du Lịch Thử Thách Việt",
        "shop": "travel_agency"
      },
      "geometry": {
        "type": "Point",
        "coordinates": [
          108.4348907,
          11.9443255
        ]
      },
      "id": "node/4746797222"
    },
    {
      "type": "Feature",
      "properties": {
        "@id": "node/4748673724",
        "addr:housenumber": "62",
        "addr:street": "Hàng Buồm",
        "email": "info@friendstravelvietnam.com",
        "name:en": "Friends travel Vietnam",
        "opening_hours": "Mo-Su 06:00-18:30",
        "phone": "+840904329289",
        "shop": "travel_agency",
        "website": "https://www.friendstravelvietnam.com/"
      },
      "geometry": {
        "type": "Point",
        "coordinates": [
          105.8513435,
          21.0358283
        ]
      },
      "id": "node/4748673724"
    },
    {
      "type": "Feature",
      "properties": {
        "@id": "node/4749009724",
        "addr:housenumber": "93",
        "addr:street": "Mậu Thân",
        "name": "Mekong Tours",
        "name:en": "Mekong Tours",
        "name:vi": "Mekong Tours",
        "shop": "travel_agency"
      },
      "geometry": {
        "type": "Point",
        "coordinates": [
          105.7753146,
          10.0310909
        ]
      },
      "id": "node/4749009724"
    },
    {
      "type": "Feature",
      "properties": {
        "@id": "node/4751837832",
        "name": "Hoang Yen",
        "name:vi": "Hoang Yen",
        "shop": "travel_agency"
      },
      "geometry": {
        "type": "Point",
        "coordinates": [
          104.290863,
          22.536604
        ]
      },
      "id": "node/4751837832"
    },
    {
      "type": "Feature",
      "properties": {
        "@id": "node/4761909244",
        "addr:housenumber": "19B",
        "addr:street": "Hàng Bè",
        "name:en": "Vietnam awesome travel",
        "shop": "travel_agency",
        "website": "https://www.vietnamawesometravel.com/"
      },
      "geometry": {
        "type": "Point",
        "coordinates": [
          105.8539143,
          21.0333039
        ]
      },
      "id": "node/4761909244"
    },
    {
      "type": "Feature",
      "properties": {
        "@id": "node/4764106621",
        "name": "Rose Travel Agency",
        "name:vi": "Rose Travel Agency",
        "shop": "travel_agency"
      },
      "geometry": {
        "type": "Point",
        "coordinates": [
          105.8489776,
          21.0296356
        ]
      },
      "id": "node/4764106621"
    },
    {
      "type": "Feature",
      "properties": {
        "@id": "node/4770683321",
        "name:en": "T.M. Camel",
        "shop": "travel_agency"
      },
      "geometry": {
        "type": "Point",
        "coordinates": [
          109.1946392,
          12.2444717
        ]
      },
      "id": "node/4770683321"
    },
    {
      "type": "Feature",
      "properties": {
        "@id": "node/4778422921",
        "addr:city": "Đà Lạt",
        "addr:housenumber": "109",
        "addr:postcode": "670000",
        "addr:province": "Lâm Đồng",
        "addr:street": "Nguyễn Văn Trỗi",
        "addr:subdistrict": "Phường 2",
        "description": "Phat Tire Ventures Vietnam is the longest running adventure sports outfitter in Vietnam specializing in mountain biking, trekking, kayaking, camping and canyoning. We have offices in both Da Lat and Hoi An.",
        "email": "info@phattireventures.com",
        "internet_access": "wlan",
        "internet_access:fee": "yes",
        "name": "Phat Tire Ventures Vietnam - Da Lat Office",
        "opening_hours": "Mo-Su 07:30-20:30",
        "operator": "Adventure travel company",
        "payment:cash": "yes",
        "payment:mastercard": "yes",
        "payment:visa": "yes",
        "phone": "+84-983-829-422",
        "shop": "travel_agency",
        "website": "https://www.ptv-vietnam.com/"
      },
      "geometry": {
        "type": "Point",
        "coordinates": [
          108.4370052,
          11.9493682
        ]
      },
      "id": "node/4778422921"
    },
    {
      "type": "Feature",
      "properties": {
        "@id": "node/4780214321",
        "name": "Rose Travel Agency",
        "name:en": "Rose Travel Agency",
        "name:vi": "Rose Travel Agency",
        "shop": "travel_agency"
      },
      "geometry": {
        "type": "Point",
        "coordinates": [
          105.8485205,
          21.0294434
        ]
      },
      "id": "node/4780214321"
    },
    {
      "type": "Feature",
      "properties": {
        "@id": "node/4784745324",
        "addr:housenumber": "135",
        "addr:postcode": "700000",
        "addr:street": "Nguyễn Hữu Cảnh",
        "name": "Du Lịch Bến Nghé",
        "name:en": "Ben Nghe Travel",
        "shop": "travel_agency"
      },
      "geometry": {
        "type": "Point",
        "coordinates": [
          106.7186833,
          10.7960397
        ]
      },
      "id": "node/4784745324"
    },
    {
      "type": "Feature",
      "properties": {
        "@id": "node/4790964221",
        "addr:housenumber": "173",
        "addr:street": "Tôn Đức Thắng",
        "name:en": "Hahn Cafe",
        "phone": "0623830186",
        "shop": "travel_agency"
      },
      "geometry": {
        "type": "Point",
        "coordinates": [
          108.1111404,
          10.9338694
        ]
      },
      "id": "node/4790964221"
    },
    {
      "type": "Feature",
      "properties": {
        "@id": "node/4792711124",
        "addr:street": "Đường Trung Tâm Long Hải",
        "name": "Cô Hân",
        "shop": "travel_agency"
      },
      "geometry": {
        "type": "Point",
        "coordinates": [
          107.2336985,
          10.3874831
        ]
      },
      "id": "node/4792711124"
    },
    {
      "type": "Feature",
      "properties": {
        "@id": "node/4793299122",
        "name": "Hung Thanh Travel",
        "name:vi": "Hung Thanh Travel",
        "shop": "travel_agency"
      },
      "geometry": {
        "type": "Point",
        "coordinates": [
          107.1147292,
          16.8109671
        ]
      },
      "id": "node/4793299122"
    },
    {
      "type": "Feature",
      "properties": {
        "@id": "node/4797704628",
        "addr:housenumber": "491A",
        "addr:street": "Điện Biên Phủ",
        "name": "Hồ Bơi-Tennis",
        "shop": "travel_agency"
      },
      "geometry": {
        "type": "Point",
        "coordinates": [
          107.1875148,
          10.4947857
        ]
      },
      "id": "node/4797704628"
    },
    {
      "type": "Feature",
      "properties": {
        "@id": "node/4805692022",
        "name:de": "Phongnha Discovery Tours",
        "name:en": "Phongnha Discovery Tours",
        "shop": "travel_agency",
        "website": "https://www.phongnhadiscovery.com/"
      },
      "geometry": {
        "type": "Point",
        "coordinates": [
          106.6207463,
          17.4764208
        ]
      },
      "id": "node/4805692022"
    },
    {
      "type": "Feature",
      "properties": {
        "@id": "node/4805739121",
        "name:de": "Tour to the Caves",
        "name:en": "Tour to the Caves",
        "shop": "travel_agency"
      },
      "geometry": {
        "type": "Point",
        "coordinates": [
          106.6229202,
          17.4783819
        ]
      },
      "id": "node/4805739121"
    },
    {
      "type": "Feature",
      "properties": {
        "@id": "node/4806984621",
        "addr:housenumber": "37",
        "addr:street": "Nguyễn Thái Học",
        "email": "hue@thesinhtourist.vn",
        "name:en": "TheSinh Tourist",
        "opening_hours": "Mo-Su 06:30-20:30",
        "phone": "+842343845022",
        "shop": "travel_agency",
        "website": "http://www.thesinhtourist.vn"
      },
      "geometry": {
        "type": "Point",
        "coordinates": [
          107.5977454,
          16.4682276
        ]
      },
      "id": "node/4806984621"
    },
    {
      "type": "Feature",
      "properties": {
        "@id": "node/4809950621",
        "addr:street": "28A Truong Dinh, District 1",
        "email": "info@innervietnam.com",
        "name:en": "Inner Vietnam Travel",
        "opening_hours": "Mo-Su 08:00-20:00",
        "phone": "+84838221661",
        "shop": "travel_agency",
        "website": "http://www.innervietnam.com"
      },
      "geometry": {
        "type": "Point",
        "coordinates": [
          106.6960819,
          10.7720577
        ]
      },
      "id": "node/4809950621"
    },
    {
      "type": "Feature",
      "properties": {
        "@id": "node/4811210821",
        "name:en": "Saigon Odessey",
        "shop": "travel_agency"
      },
      "geometry": {
        "type": "Point",
        "coordinates": [
          106.6945804,
          10.7677163
        ]
      },
      "id": "node/4811210821"
    },
    {
      "type": "Feature",
      "properties": {
        "@id": "node/4812503221",
        "name:en": "Tour Viet Tour Operator",
        "shop": "travel_agency"
      },
      "geometry": {
        "type": "Point",
        "coordinates": [
          109.196127,
          12.2358838
        ]
      },
      "id": "node/4812503221"
    },
    {
      "type": "Feature",
      "properties": {
        "@id": "node/4836407130",
        "addr:city": "Hòa Bình",
        "addr:district": "Kỳ Sơn",
        "addr:postcode": "351541",
        "addr:province": "Hòa Bình",
        "addr:street": "QL 6",
        "addr:subdistrict": "Mông Hóa",
        "name": "Công ty TNHH MTV Hoàng Đức",
        "opening_hours": "Mọi lúc",
        "operator": "Công ty TNHH MTV Hoàng Đức",
        "shop": "travel_agency",
        "website": "https://www.facebook.com/xedulichhoabinh"
      },
      "geometry": {
        "type": "Point",
        "coordinates": [
          105.3924063,
          20.9026367
        ]
      },
      "id": "node/4836407130"
    },
    {
      "type": "Feature",
      "properties": {
        "@id": "node/4840694721",
        "addr:housenumber": "184",
        "addr:street": "Một Tháng Tư",
        "name:en": "Cat Ba Vision",
        "opening_hours": "Mo-Su 07:30-20:30",
        "phone": "+84 96 854 41 44",
        "shop": "travel_agency",
        "website": "https://catbavision.com/"
      },
      "geometry": {
        "type": "Point",
        "coordinates": [
          107.0481191,
          20.7255586
        ]
      },
      "id": "node/4840694721"
    },
    {
      "type": "Feature",
      "properties": {
        "@id": "node/4851264122",
        "addr:postcode": "100000",
        "addr:street": "8 Lane 25/7 - Vũ Ngọc Phan - Láng Hạ",
        "email": "booking@lafermeducolvert.com",
        "name": "VĂN PHÒNG | Vịt Cổ Xanh Resort Spa Việt-Pháp",
        "name:en": "La Ferme du Colvert R&S | HANOI OFFICE",
        "name:fr": "BUREAU RESERVATION | La Ferme du Colvert R&S",
        "opening_hours": "Mo-Sa 08:30-17:30",
        "phone": "+84 4 3776 4301",
        "shop": "travel_agency",
        "website": "http://lafermeducolvert.com"
      },
      "geometry": {
        "type": "Point",
        "coordinates": [
          105.8099627,
          21.0138394
        ]
      },
      "id": "node/4851264122"
    },
    {
      "type": "Feature",
      "properties": {
        "@id": "node/4851377121",
        "addr:housenumber": "90",
        "addr:street": "Phạm Văn Đồng",
        "email": "airbooking.ht@gmail.com",
        "name": "Phòng vé Hân Thảo",
        "name:en": "Hân Thảo Travel Agency",
        "name:vi": "Phòng vé Hân Thảo",
        "phone": "+84936316952",
        "shop": "travel_agency",
        "website": "http://www.vemaybay333.com"
      },
      "geometry": {
        "type": "Point",
        "coordinates": [
          109.1565907,
          11.9217624
        ]
      },
      "id": "node/4851377121"
    },
    {
      "type": "Feature",
      "properties": {
        "@id": "node/4867473631",
        "addr:housenumber": "R1-72",
        "addr:street": "Nội Khu Hưng Phước 4",
        "name": "Easy Tour",
        "name:ko": "이지투어",
        "shop": "travel_agency"
      },
      "geometry": {
        "type": "Point",
        "coordinates": [
          106.7068711,
          10.7298057
        ]
      },
      "id": "node/4867473631"
    },
    {
      "type": "Feature",
      "properties": {
        "@id": "node/4875867421",
        "addr:housenumber": "6",
        "addr:street": "Chu Văn An",
        "name": "Hung Thanh Travel",
        "shop": "travel_agency"
      },
      "geometry": {
        "type": "Point",
        "coordinates": [
          107.5964698,
          16.4683609
        ]
      },
      "id": "node/4875867421"
    },
    {
      "type": "Feature",
      "properties": {
        "@id": "node/4880374321",
        "name": "Groovy Geeko",
        "name:vi": "Groovy Geeko",
        "shop": "travel_agency"
      },
      "geometry": {
        "type": "Point",
        "coordinates": [
          108.4346309,
          11.9439295
        ]
      },
      "id": "node/4880374321"
    },
    {
      "type": "Feature",
      "properties": {
        "@id": "node/4907187821",
        "name": "Vietnam Nomad Trails",
        "name:vi": "Vietnam Nomad Trails",
        "shop": "travel_agency"
      },
      "geometry": {
        "type": "Point",
        "coordinates": [
          103.8412836,
          22.3338744
        ]
      },
      "id": "node/4907187821"
    },
    {
      "type": "Feature",
      "properties": {
        "@id": "node/4944024421",
        "shop": "travel_agency"
      },
      "geometry": {
        "type": "Point",
        "coordinates": [
          104.0296433,
          10.133734
        ]
      },
      "id": "node/4944024421"
    },
    {
      "type": "Feature",
      "properties": {
        "@id": "node/4968881227",
        "addr:housenumber": "23",
        "addr:street": "Lê Lợi",
        "name": "Phuong Trang - Futa Bus Lines",
        "shop": "travel_agency"
      },
      "geometry": {
        "type": "Point",
        "coordinates": [
          105.0832859,
          10.009942
        ]
      },
      "id": "node/4968881227"
    },
    {
      "type": "Feature",
      "properties": {
        "@id": "node/4968899724",
        "name": "Superdong",
        "shop": "travel_agency"
      },
      "geometry": {
        "type": "Point",
        "coordinates": [
          105.0785645,
          10.0122862
        ]
      },
      "id": "node/4968899724"
    },
    {
      "type": "Feature",
      "properties": {
        "@id": "node/4968899728",
        "addr:housenumber": "53",
        "addr:street": "Phố Quang Trung",
        "name": "Vietnam Airlines",
        "shop": "travel_agency"
      },
      "geometry": {
        "type": "Point",
        "coordinates": [
          105.8477591,
          21.0184513
        ]
      },
      "id": "node/4968899728"
    },
    {
      "type": "Feature",
      "properties": {
        "@id": "node/4988187621",
        "addr:housenumber": "19A",
        "addr:street": "Huỳnh Thúc Kháng",
        "name:ru": "турагенство \"Русалка-тур\"",
        "opening_hours": "Mo-Su 09:00-22:00",
        "shop": "travel_agency"
      },
      "geometry": {
        "type": "Point",
        "coordinates": [
          108.2515604,
          10.9528344
        ]
      },
      "id": "node/4988187621"
    },
    {
      "type": "Feature",
      "properties": {
        "@id": "node/4989536321",
        "addr:housenumber": "22",
        "addr:street": "Nguyen Dinh Chieu",
        "name:ru": "Русалка ТУР",
        "opening_hours": "Mo-Su 11:00-22:00",
        "phone": "+84942255403",
        "shop": "travel_agency"
      },
      "geometry": {
        "type": "Point",
        "coordinates": [
          108.1951264,
          10.9439884
        ]
      },
      "id": "node/4989536321"
    },
    {
      "type": "Feature",
      "properties": {
        "@id": "node/5023960849",
        "addr:housenumber": "29 D",
        "addr:street": "Biệt Thự",
        "name:en": "Nha Trang Tours",
        "shop": "travel_agency"
      },
      "geometry": {
        "type": "Point",
        "coordinates": [
          109.1937889,
          12.2352934
        ]
      },
      "id": "node/5023960849"
    },
    {
      "type": "Feature",
      "properties": {
        "@id": "node/5025728122",
        "addr:city": "Hà Giang",
        "addr:housenumber": "N.69, Lane 487",
        "addr:postcode": "310000",
        "addr:province": "Hà Giang",
        "addr:street": "Đường Lý Thường Kiệt",
        "addr:subdistrict": "Ngọc Hà",
        "email": "sales@visiontravelagent.com",
        "name": "Công ty du lịch Vision Travel",
        "name:en": "Vision Travel",
        "opening_hours": "24/7",
        "payment:cash": "yes",
        "payment:credit_cards": "yes",
        "payment:debit_cards": "yes",
        "payment:visa": "yes",
        "phone": "+84825331983",
        "shop": "travel_agency",
        "website": "https://visiontravelagent.com"
      },
      "geometry": {
        "type": "Point",
        "coordinates": [
          105.0119813,
          22.8387815
        ]
      },
      "id": "node/5025728122"
    },
    {
      "type": "Feature",
      "properties": {
        "@id": "node/5029790923",
        "name": "Du Lịch Hanoi Travel",
        "name:en": "HanoiTravel",
        "name:vi": "HanoiTravel",
        "shop": "travel_agency"
      },
      "geometry": {
        "type": "Point",
        "coordinates": [
          105.8248341,
          21.0347836
        ]
      },
      "id": "node/5029790923"
    },
    {
      "type": "Feature",
      "properties": {
        "@id": "node/5032658122",
        "email": "60minutes@escapeiqhoian.com",
        "name": "Escape iQ Hoi An",
        "name:en": "Escape iQ Hoi An",
        "name:vi": "Escape iQ Hoi An",
        "shop": "travel_agency",
        "website": "http://www.eacapeiqhoian.com"
      },
      "geometry": {
        "type": "Point",
        "coordinates": [
          108.3220258,
          15.8753092
        ]
      },
      "id": "node/5032658122"
    },
    {
      "type": "Feature",
      "properties": {
        "@id": "node/5136769321",
        "addr:housenumber": "08",
        "addr:street": "Bà Triệu",
        "email": "thaont@vietdantravel.com",
        "name:en": "Vietnam Rejser",
        "opening_hours": "Mo-Sa 08:00-17:00; Su 00:00-24:00",
        "phone": "00841657018820",
        "shop": "travel_agency"
      },
      "geometry": {
        "type": "Point",
        "coordinates": [
          108.3247181,
          15.8833313
        ]
      },
      "id": "node/5136769321"
    },
    {
      "type": "Feature",
      "properties": {
        "@id": "node/5137057424",
        "addr:housenumber": "57",
        "addr:street": "Lương Ngọc Quyến",
        "email": "kontakt@vietnam-rejser.dk",
        "name:en": "Vietnam Travel",
        "opening_hours": "Mo-Su 08:00-21:00",
        "phone": "00841215116624",
        "shop": "travel_agency",
        "website": "http://Vietnam-Rejser.dk"
      },
      "geometry": {
        "type": "Point",
        "coordinates": [
          105.8515999,
          21.0347561
        ]
      },
      "id": "node/5137057424"
    },
    {
      "type": "Feature",
      "properties": {
        "@id": "node/5137981655",
        "addr:city": "Ho Chi Minh City",
        "addr:district": "Tan Binh",
        "addr:housenumber": "88",
        "addr:postcode": "736463",
        "addr:street": "Bạch Đằng",
        "addr:subdistrict": "2",
        "email": "cd@discotravel.vn",
        "name": "Disco Travel - Du lịch Quốc Tế Khám Phá",
        "name:en": "DISCO TRAVEL",
        "opening_hours": "Mo-Fr 08:30-17:00",
        "payment:cash": "yes",
        "payment:credit_cards": "yes",
        "payment:debit_cards": "yes",
        "payment:mastercard": "yes",
        "payment:visa": "yes",
        "phone": "02871078910",
        "shop": "travel_agency",
        "tourism": "attraction",
        "website": "https://discotravel.vn/"
      },
      "geometry": {
        "type": "Point",
        "coordinates": [
          106.6734822,
          10.8151663
        ]
      },
      "id": "node/5137981655"
    },
    {
      "type": "Feature",
      "properties": {
        "@id": "node/5147403123",
        "name:en": "Tour Office",
        "shop": "travel_agency"
      },
      "geometry": {
        "type": "Point",
        "coordinates": [
          106.6941975,
          10.7690388
        ]
      },
      "id": "node/5147403123"
    },
    {
      "type": "Feature",
      "properties": {
        "@id": "node/5157320426",
        "name:en": "Holidays with Hanna Travel",
        "shop": "travel_agency"
      },
      "geometry": {
        "type": "Point",
        "coordinates": [
          105.8534511,
          21.0356288
        ]
      },
      "id": "node/5157320426"
    },
    {
      "type": "Feature",
      "properties": {
        "@id": "node/5209759922",
        "name:en": "The Sinh tourist",
        "shop": "travel_agency"
      },
      "geometry": {
        "type": "Point",
        "coordinates": [
          105.8534705,
          21.0354751
        ]
      },
      "id": "node/5209759922"
    },
    {
      "type": "Feature",
      "properties": {
        "@id": "node/5219226925",
        "addr:street": "Quốc lộ 15",
        "email": "maichau@asiaoutdoors.com.vn",
        "name": "Asia Outdoors Mai Chau",
        "name:en": "Asia Outdoors Mai Chau",
        "name:vi": "Asia Outdoors Mai Chau",
        "opening_hours": "Mo-Su 08:00-20:00",
        "phone": "+84 0218 3868 859",
        "shop": "travel_agency",
        "website": "https://www.asiaoutdoors.com.vn/mai-chau.html"
      },
      "geometry": {
        "type": "Point",
        "coordinates": [
          105.0784065,
          20.6540501
        ]
      },
      "id": "node/5219226925"
    },
    {
      "type": "Feature",
      "properties": {
        "@id": "node/5229978921",
        "addr:housenumber": "Phuong Nam",
        "addr:postcode": "+842435373535",
        "addr:street": "Láng Hạ",
        "email": "info@phuongnamtravel.com.vn",
        "name": "Du Lịch Phương Nam",
        "opening_hours": "Mo-Sa 08:00-12:00,13:00-17:00",
        "phone": "+84935373535",
        "shop": "travel_agency",
        "website": "http://www.phuongnamtravel.com.vn"
      },
      "geometry": {
        "type": "Point",
        "coordinates": [
          105.8177616,
          21.019306
        ]
      },
      "id": "node/5229978921"
    },
    {
      "type": "Feature",
      "properties": {
        "@id": "node/5249726521",
        "addr:housenumber": "18C",
        "addr:street": "Trần Hưng Đạo",
        "name": "Việt Nhật",
        "name:en": "Viet Nhat bus stop.",
        "phone": "02583524717",
        "shop": "travel_agency"
      },
      "geometry": {
        "type": "Point",
        "coordinates": [
          109.194825,
          12.2444727
        ]
      },
      "id": "node/5249726521"
    },
    {
      "type": "Feature",
      "properties": {
        "@id": "node/5255497224",
        "name:en": "TNT Travel",
        "shop": "travel_agency"
      },
      "geometry": {
        "type": "Point",
        "coordinates": [
          107.5925593,
          16.466259
        ]
      },
      "id": "node/5255497224"
    },
    {
      "type": "Feature",
      "properties": {
        "@id": "node/5261621325",
        "name:en": "Handspan Indochina Travel",
        "shop": "travel_agency"
      },
      "geometry": {
        "type": "Point",
        "coordinates": [
          105.853343,
          21.0345041
        ]
      },
      "id": "node/5261621325"
    },
    {
      "type": "Feature",
      "properties": {
        "@id": "node/5265127722",
        "addr:housenumber": "14",
        "addr:postcode": "10000",
        "addr:street": "Mã Mây",
        "email": "duckinh84@gmail.com",
        "name": "Van Phong Du Lich Bao Nam",
        "name:en": "Vietnam Top Tours",
        "opening_hours": "24/7",
        "phone": "+84947692776",
        "shop": "travel_agency"
      },
      "geometry": {
        "type": "Point",
        "coordinates": [
          105.8531762,
          21.0359304
        ]
      },
      "id": "node/5265127722"
    },
    {
      "type": "Feature",
      "properties": {
        "@id": "node/5267034121",
        "addr:housenumber": "184",
        "addr:postcode": "180000",
        "addr:street": "Đường 1/4",
        "email": "info.catbavision@gmail.com",
        "name": "Tầm Nhìn Cát Bà",
        "name:en": "CatBa Vision",
        "name:vi": "Pinneaplee hotel",
        "opening_hours": "Mo-Su 07:30-09:00",
        "phone": "0968544144",
        "shop": "travel_agency",
        "website": "https://www.catbavision.com/"
      },
      "geometry": {
        "type": "Point",
        "coordinates": [
          107.0473146,
          20.7257022
        ]
      },
      "id": "node/5267034121"
    },
    {
      "type": "Feature",
      "properties": {
        "@id": "node/5271446822",
        "addr:housenumber": "126",
        "addr:street": "Nguyễn Đình Chiểu",
        "name": "Gluck Tour",
        "shop": "travel_agency"
      },
      "geometry": {
        "type": "Point",
        "coordinates": [
          108.228438,
          10.9552938
        ]
      },
      "id": "node/5271446822"
    },
    {
      "type": "Feature",
      "properties": {
        "@id": "node/5294987624",
        "addr:housenumber": "283/20",
        "addr:street": "Phạm Ngũ Lão",
        "name:en": "SinhBalo Adventure Travel",
        "shop": "travel_agency"
      },
      "geometry": {
        "type": "Point",
        "coordinates": [
          106.6909141,
          10.767183
        ]
      },
      "id": "node/5294987624"
    },
    {
      "type": "Feature",
      "properties": {
        "@id": "node/5294987625",
        "addr:housenumber": "2/6",
        "addr:street": "Nguyễn Văn Cừ",
        "name:en": "Hanh Cafe",
        "shop": "travel_agency"
      },
      "geometry": {
        "type": "Point",
        "coordinates": [
          108.4341985,
          11.9393264
        ]
      },
      "id": "node/5294987625"
    },
    {
      "type": "Feature",
      "properties": {
        "@id": "node/5297289721",
        "addr:street": "08 Thac Bac Road",
        "email": "trekking@sapaochau.org",
        "name:en": "Sapa O’Chau - Sustainable Tourism",
        "opening_hours": "Mo-Su 09:00-18:00",
        "phone": "+84915502589",
        "shop": "travel_agency",
        "website": "http://www.sapaochau.org"
      },
      "geometry": {
        "type": "Point",
        "coordinates": [
          103.8397492,
          22.3357766
        ]
      },
      "id": "node/5297289721"
    },
    {
      "type": "Feature",
      "properties": {
        "@id": "node/5302838321",
        "name:en": "the sinh cafe tourist",
        "shop": "travel_agency"
      },
      "geometry": {
        "type": "Point",
        "coordinates": [
          105.8471114,
          21.0342686
        ]
      },
      "id": "node/5302838321"
    },
    {
      "type": "Feature",
      "properties": {
        "@id": "node/5345118864",
        "shop": "travel_agency"
      },
      "geometry": {
        "type": "Point",
        "coordinates": [
          106.660158,
          10.7966408
        ]
      },
      "id": "node/5345118864"
    },
    {
      "type": "Feature",
      "properties": {
        "@id": "node/5346075549",
        "addr:street": "178/46/4, Đường Ba Tháng Hai, Phường Hưng Lợi, Quận Ninh Kiều, Xuân Khánh, Ninh Kiều, Cần Thơ, Việt Nam",
        "name": "Công Ty TNHH Một Thành Viên Du Lịch Hương Quê",
        "phone": "+84 91 985 69 45",
        "shop": "travel_agency"
      },
      "geometry": {
        "type": "Point",
        "coordinates": [
          105.7674837,
          10.024026
        ]
      },
      "id": "node/5346075549"
    },
    {
      "type": "Feature",
      "properties": {
        "@id": "node/5346075550",
        "addr:street": "268/4A, Nguyễn Văn Linh, Phường Hưng Lợi, Quận Ninh Kiều, Thành Phố Cần Thơ, Hưng Lợi, Ninh Kiều, Cần Thơ, Việt Nam",
        "name": "Dịch Vụ Du Lịch CKS",
        "phone": "+84 292 6258 080",
        "shop": "travel_agency"
      },
      "geometry": {
        "type": "Point",
        "coordinates": [
          105.7601344,
          10.0250403
        ]
      },
      "id": "node/5346075550"
    },
    {
      "type": "Feature",
      "properties": {
        "@id": "node/5346075551",
        "addr:street": "17-19A2, Nguyễn Hiền, Khu Dân Cư 91B, Phường An Khánh, Quận Ninh Kiều, Thành Phố Cần Thơ, Hưng Lợi, Ninh Kiều, Cần Thơ, Việt Nam",
        "name": "Công Ty TNHH MTV Du Lịch Hồng Tân",
        "phone": "+84 90 109 00 11",
        "shop": "travel_agency"
      },
      "geometry": {
        "type": "Point",
        "coordinates": [
          105.755572,
          10.0225707
        ]
      },
      "id": "node/5346075551"
    },
    {
      "type": "Feature",
      "properties": {
        "@id": "node/5346075552",
        "addr:street": "152, Ba Tháng Hai, Phường Hưng Lợi, Quận Ninh Kiều, Thành Phố Cần Thơ, Hưng Lợi, Ninh Kiều, Cần Thơ, Việt Nam",
        "name": "Công Ty TNHH MTV Du Lịch Khỏe",
        "phone": "+84 292 6250 828",
        "shop": "travel_agency"
      },
      "geometry": {
        "type": "Point",
        "coordinates": [
          105.76316,
          10.0193298
        ]
      },
      "id": "node/5346075552"
    },
    {
      "type": "Feature",
      "properties": {
        "@id": "node/5346075553",
        "addr:street": "60, Đường 3/2, Phường Hưng Lợi, Quận Ninh Kiều, Hưng Lợi, Ninh Kiều, Cần Thơ, Việt Nam",
        "name": "Công Ty TNHH Du Lịch Xanh",
        "phone": "+84 292 3767 676",
        "shop": "travel_agency"
      },
      "geometry": {
        "type": "Point",
        "coordinates": [
          105.7579511,
          10.0140366
        ]
      },
      "id": "node/5346075553"
    },
    {
      "type": "Feature",
      "properties": {
        "@id": "node/5346075554",
        "addr:street": "60, Đường 3/2, Phường Hưng Lợi, Quận Ninh Kiều, Hưng Lợi, Ninh Kiều, Cần Thơ, Việt Nam",
        "name": "Công Ty TNHH Du Lịch Xanh",
        "phone": "+84 292 3767 676",
        "shop": "travel_agency"
      },
      "geometry": {
        "type": "Point",
        "coordinates": [
          105.7604805,
          10.0118575
        ]
      },
      "id": "node/5346075554"
    },
    {
      "type": "Feature",
      "properties": {
        "@id": "node/5346075555",
        "addr:street": "662 Ba Mươi Tháng Tư, Hưng Lợi, Ninh Kiều, Cần Thơ, Việt Nam",
        "name": "Công Ty Du Lịch Fittravel",
        "phone": "+84 292 3769 237",
        "shop": "travel_agency",
        "website": "fittravel.vn"
      },
      "geometry": {
        "type": "Point",
        "coordinates": [
          105.7607621,
          10.0133076
        ]
      },
      "id": "node/5346075555"
    },
    {
      "type": "Feature",
      "properties": {
        "@id": "node/5346075556",
        "addr:street": "Khu Dân Cư Metro, 40, Phường Hưng Lợi, Quận Ninh Kiều, Thành Phố Cần Thơ, Hưng Lợi, Ninh Kiều, Cần Thơ, Việt Nam",
        "name": "Công Ty Cổ Phần Du Lịch Sông Nước Miền Tây",
        "phone": "+84 292 6507 474",
        "shop": "travel_agency"
      },
      "geometry": {
        "type": "Point",
        "coordinates": [
          105.7615238,
          10.0139468
        ]
      },
      "id": "node/5346075556"
    },
    {
      "type": "Feature",
      "properties": {
        "@id": "node/5346075557",
        "addr:street": "776, Đường 30/4, Phường Hưng Lợi, Quận Ninh Kiều, Thành Phố Cần Thơ, Hưng Lợi, Ninh Kiều, Cần Thơ, Việt Nam",
        "name": "Công Ty CP Du Lịch Thương Mại Xây Dựng BBC",
        "phone": "+84 90 907 07 88",
        "shop": "travel_agency"
      },
      "geometry": {
        "type": "Point",
        "coordinates": [
          105.7627845,
          10.0149717
        ]
      },
      "id": "node/5346075557"
    },
    {
      "type": "Feature",
      "properties": {
        "@id": "node/5346075559",
        "addr:street": "117/3A Ba Tháng Hai, Hưng Lợi, Ninh Kiều, Hưng Lợi Ninh Kiều Cần Thơ 9200000, Việt Nam",
        "name": "công ty du lịch Sóng Phù Sa",
        "opening_hours": "8:00 - 21:00",
        "phone": "+84 98 999 77 81",
        "shop": "travel_agency",
        "website": "http://www.songphusatour.com/"
      },
      "geometry": {
        "type": "Point",
        "coordinates": [
          105.7618618,
          10.0174994
        ]
      },
      "id": "node/5346075559"
    },
    {
      "type": "Feature",
      "properties": {
        "@id": "node/5358473823",
        "shop": "travel_agency"
      },
      "geometry": {
        "type": "Point",
        "coordinates": [
          108.3254808,
          15.8819807
        ]
      },
      "id": "node/5358473823"
    },
    {
      "type": "Feature",
      "properties": {
        "@id": "node/5367507321",
        "addr:street": "Lý Thường Kiệt",
        "name:ja": "HIS ハノイ支店",
        "shop": "travel_agency"
      },
      "geometry": {
        "type": "Point",
        "coordinates": [
          105.8543132,
          21.0221163
        ]
      },
      "id": "node/5367507321"
    },
    {
      "type": "Feature",
      "properties": {
        "@id": "node/5405834521",
        "addr:housenumber": "162B",
        "addr:postcode": "100000",
        "addr:street": "Đường Trần Quang Khải",
        "email": "fullmoonpartytour@gmail.com",
        "name": "Du Lịch Full Moon",
        "opening_hours": "Mo-Su 07:00-20:00",
        "phone": "0974426821",
        "shop": "travel_agency",
        "website": "https://www.fullmoonpartytourvietnam.com/"
      },
      "geometry": {
        "type": "Point",
        "coordinates": [
          105.8559887,
          21.032418
        ]
      },
      "id": "node/5405834521"
    },
    {
      "type": "Feature",
      "properties": {
        "@id": "node/5405834621",
        "addr:housenumber": "225",
        "addr:postcode": "35000",
        "addr:street": "Đường 1/4",
        "email": "fullmoonpartytour@gmail.com",
        "name": "Full Moon Party Tour",
        "opening_hours": "Mo-Su 07:00-22:00",
        "phone": "0974426821",
        "shop": "travel_agency",
        "website": "https://www.fullmoonpartytourvietnam.com/"
      },
      "geometry": {
        "type": "Point",
        "coordinates": [
          107.0500972,
          20.7240557
        ]
      },
      "id": "node/5405834621"
    },
    {
      "type": "Feature",
      "properties": {
        "@id": "node/5415671021",
        "name": "Du Lịch Indochina",
        "shop": "travel_agency"
      },
      "geometry": {
        "type": "Point",
        "coordinates": [
          105.8481848,
          21.0282731
        ]
      },
      "id": "node/5415671021"
    },
    {
      "type": "Feature",
      "properties": {
        "@id": "node/5419456321",
        "name:ru": "Коля тур",
        "shop": "travel_agency"
      },
      "geometry": {
        "type": "Point",
        "coordinates": [
          108.2996666,
          10.9493902
        ]
      },
      "id": "node/5419456321"
    },
    {
      "type": "Feature",
      "properties": {
        "@id": "node/5419667022",
        "addr:city": "Hà Nội",
        "addr:district": "Hoàn Kiếm",
        "addr:housenumber": "34",
        "addr:province": "Hà Nội",
        "addr:street": "Đường Trần Nhật Duật",
        "addr:subdistrict": "Đồng Xuân",
        "name": "Hoàng Long Bus Company",
        "phone": "+84 243 928 2828",
        "shop": "travel_agency",
        "website": "https://www.hoanglongasia.com/"
      },
      "geometry": {
        "type": "Point",
        "coordinates": [
          105.8516517,
          21.0386991
        ]
      },
      "id": "node/5419667022"
    },
    {
      "type": "Feature",
      "properties": {
        "@id": "node/5420066421",
        "name": "Queen cafe bus",
        "shop": "travel_agency"
      },
      "geometry": {
        "type": "Point",
        "coordinates": [
          107.5936519,
          16.4687355
        ]
      },
      "id": "node/5420066421"
    },
    {
      "type": "Feature",
      "properties": {
        "@id": "node/5433699927",
        "name:en": "Ocean tours",
        "shop": "travel_agency"
      },
      "geometry": {
        "type": "Point",
        "coordinates": [
          105.8534715,
          21.0342433
        ]
      },
      "id": "node/5433699927"
    },
    {
      "type": "Feature",
      "properties": {
        "@id": "node/5444301130",
        "addr:street": "Lý Nhân Tông",
        "email": "superdong_2008@yahoo.com.vn",
        "name": "Superdong Ferry Ticket Office",
        "name:en": "Superdong Ticket Office",
        "name:vi": "Superdong Ticket Office",
        "phone": "0919 664 660",
        "shop": "travel_agency",
        "website": "https://superdong.com.vn/en/dich-vu/"
      },
      "geometry": {
        "type": "Point",
        "coordinates": [
          105.0784709,
          10.0092605
        ]
      },
      "id": "node/5444301130"
    },
    {
      "type": "Feature",
      "properties": {
        "@id": "node/5455875221",
        "name:en": "Visa Extention",
        "name:ru": "Продление визы",
        "shop": "travel_agency"
      },
      "geometry": {
        "type": "Point",
        "coordinates": [
          108.3268942,
          15.8800039
        ]
      },
      "id": "node/5455875221"
    },
    {
      "type": "Feature",
      "properties": {
        "@id": "node/5468791928",
        "addr:housenumber": "199",
        "addr:street": "Đường Phạm Ngũ Lão",
        "name": "Tâm Hanh Travel",
        "name:en": "Tam Hanh Travel",
        "opening_hours": "Mo-Su 06:00-21:00",
        "phone": "0915817979",
        "shop": "travel_agency"
      },
      "geometry": {
        "type": "Point",
        "coordinates": [
          106.6931799,
          10.7685664
        ]
      },
      "id": "node/5468791928"
    },
    {
      "type": "Feature",
      "properties": {
        "@id": "node/5470197821",
        "addr:housenumber": "21",
        "addr:street": "Vườn Đào - Bãi Cháy",
        "email": "tnxtravel@gmail.com",
        "name:en": "Green Steppe Trading & Travel",
        "opening_hours": "24/7",
        "phone": "(+84) 972268698",
        "shop": "travel_agency",
        "website": "http://www.tnxtravel.com.vn"
      },
      "geometry": {
        "type": "Point",
        "coordinates": [
          107.0500695,
          20.9571775
        ]
      },
      "id": "node/5470197821"
    },
    {
      "type": "Feature",
      "properties": {
        "@id": "node/5479083921",
        "name:en": "The Sinh Tourist 2",
        "shop": "travel_agency"
      },
      "geometry": {
        "type": "Point",
        "coordinates": [
          106.7004511,
          10.7686085
        ]
      },
      "id": "node/5479083921"
    },
    {
      "type": "Feature",
      "properties": {
        "@id": "node/5479216121",
        "addr:street": "Phó Ðức Chính",
        "name:en": "The Sinh Tourist",
        "shop": "travel_agency"
      },
      "geometry": {
        "type": "Point",
        "coordinates": [
          106.7004845,
          10.7686434
        ]
      },
      "id": "node/5479216121"
    },
    {
      "type": "Feature",
      "properties": {
        "@id": "node/5480874221",
        "name:en": "Amazing Snorkeling",
        "shop": "travel_agency"
      },
      "geometry": {
        "type": "Point",
        "coordinates": [
          109.1952554,
          12.2355229
        ]
      },
      "id": "node/5480874221"
    },
    {
      "type": "Feature",
      "properties": {
        "@id": "node/5486137921",
        "name:en": "Hoa Asia Travel",
        "shop": "travel_agency"
      },
      "geometry": {
        "type": "Point",
        "coordinates": [
          105.8474578,
          21.0341341
        ]
      },
      "id": "node/5486137921"
    },
    {
      "type": "Feature",
      "properties": {
        "@id": "node/5510024021",
        "addr:housenumber": "98",
        "addr:street": "Nguyễn Huệ",
        "email": "bookings@lesrivesexperience.com",
        "name": "Du Lịch Les Rives Authentic River Experience",
        "opening_hours": "Mo-Fr 09:00-18:00",
        "phone": "00841285920018",
        "shop": "travel_agency",
        "website": "https://lesrivesexperience.com/"
      },
      "geometry": {
        "type": "Point",
        "coordinates": [
          106.7024191,
          10.7753728
        ]
      },
      "id": "node/5510024021"
    },
    {
      "type": "Feature",
      "properties": {
        "@id": "node/5537970227",
        "name": "Old Quarter travel",
        "shop": "travel_agency"
      },
      "geometry": {
        "type": "Point",
        "coordinates": [
          105.8533566,
          21.0350739
        ]
      },
      "id": "node/5537970227"
    },
    {
      "type": "Feature",
      "properties": {
        "@id": "node/5556809321",
        "name": "hoang thanh anh travel",
        "name:en": "hoi an orioles travel",
        "shop": "travel_agency"
      },
      "geometry": {
        "type": "Point",
        "coordinates": [
          108.3323523,
          15.8765049
        ]
      },
      "id": "node/5556809321"
    },
    {
      "type": "Feature",
      "properties": {
        "@id": "node/5573958521",
        "addr:housenumber": "23",
        "addr:street": "Yên Thái",
        "name:en": "Miss Ly's Travel Agency",
        "opening_hours": "Mo-Su 09:00-09:00, 19:00-19:00",
        "shop": "travel_agency"
      },
      "geometry": {
        "type": "Point",
        "coordinates": [
          105.8476694,
          21.0318951
        ]
      },
      "id": "node/5573958521"
    },
    {
      "type": "Feature",
      "properties": {
        "@id": "node/5578246999",
        "addr:housenumber": "184",
        "name": "Cat Ba Vision",
        "shop": "travel_agency"
      },
      "geometry": {
        "type": "Point",
        "coordinates": [
          107.0474133,
          20.725681
        ]
      },
      "id": "node/5578246999"
    },
    {
      "type": "Feature",
      "properties": {
        "@id": "node/5595948425",
        "name:en": "Hieu's Tour",
        "name:zh": "水上游",
        "shop": "travel_agency"
      },
      "geometry": {
        "type": "Point",
        "coordinates": [
          105.7876085,
          10.0323021
        ]
      },
      "id": "node/5595948425"
    },
    {
      "type": "Feature",
      "properties": {
        "@id": "node/5596685322",
        "name:en": "Quoc Bao",
        "shop": "travel_agency"
      },
      "geometry": {
        "type": "Point",
        "coordinates": [
          109.2916255,
          13.8831658
        ]
      },
      "id": "node/5596685322"
    },
    {
      "type": "Feature",
      "properties": {
        "@id": "node/5606335898",
        "name": "Saigon Tourist",
        "shop": "travel_agency"
      },
      "geometry": {
        "type": "Point",
        "coordinates": [
          107.0760166,
          10.3473921
        ]
      },
      "id": "node/5606335898"
    },
    {
      "type": "Feature",
      "properties": {
        "@id": "node/5611469157",
        "brand": "Royal Enfield;Honda;Kawasaki;Suzuki",
        "description": "Motorcycle tours and off-road adventure travel in Vietnam, Laos, Cambodia, Myanmar, India, Nepal, Bhutan, Sri Lanka",
        "email": "info@mototoursasia.com",
        "motorcycle:rental": "yes",
        "motorcycle:tours": "guided",
        "motorcycle:type": "standard;dualsport",
        "name": "Du Lịch Mototours",
        "phone": "+84 979 900 800",
        "shop": "travel_agency",
        "website": "https://mototoursasia.com/"
      },
      "geometry": {
        "type": "Point",
        "coordinates": [
          105.8416938,
          21.0432493
        ]
      },
      "id": "node/5611469157"
    },
    {
      "type": "Feature",
      "properties": {
        "@id": "node/5614486423",
        "addr:housenumber": "13",
        "addr:street": "Ngõ Huyện",
        "email": "huyphung0507@gmail.com",
        "name": "Phùng Motorbike",
        "phone": "0904253491",
        "shop": "travel_agency",
        "website": "https://2wheelsvietnam.com/"
      },
      "geometry": {
        "type": "Point",
        "coordinates": [
          105.8488304,
          21.0295697
        ]
      },
      "id": "node/5614486423"
    },
    {
      "type": "Feature",
      "properties": {
        "@id": "node/5618684514",
        "name": "Trịnh Mạnh Thắng",
        "shop": "travel_agency"
      },
      "geometry": {
        "type": "Point",
        "coordinates": [
          107.0752769,
          10.3484934
        ]
      },
      "id": "node/5618684514"
    },
    {
      "type": "Feature",
      "properties": {
        "@id": "node/5630697373",
        "name": "Dalat Open Tours",
        "shop": "travel_agency"
      },
      "geometry": {
        "type": "Point",
        "coordinates": [
          108.4323715,
          11.9416449
        ]
      },
      "id": "node/5630697373"
    },
    {
      "type": "Feature",
      "properties": {
        "@id": "node/5671205921",
        "name": "Du Lịch Vanaday",
        "shop": "travel_agency"
      },
      "geometry": {
        "type": "Point",
        "coordinates": [
          106.693796,
          10.7677438
        ]
      },
      "id": "node/5671205921"
    },
    {
      "type": "Feature",
      "properties": {
        "@id": "node/5677758524",
        "addr:city": "Hà Nội",
        "addr:district": "Hoàn Kiếm",
        "addr:housenumber": "37 b",
        "addr:street": "Phố Nguyễn Hữu Huân",
        "addr:subdistrict": "Lý Thái Tổ",
        "name": "Cát Bà Express Tours & Bus",
        "shop": "travel_agency"
      },
      "geometry": {
        "type": "Point",
        "coordinates": [
          105.8545699,
          21.0333109
        ]
      },
      "id": "node/5677758524"
    },
    {
      "type": "Feature",
      "properties": {
        "@id": "node/5705714121",
        "name:en": "Hue Thong Travel",
        "shop": "travel_agency"
      },
      "geometry": {
        "type": "Point",
        "coordinates": [
          107.5846251,
          16.4690148
        ]
      },
      "id": "node/5705714121"
    },
    {
      "type": "Feature",
      "properties": {
        "@id": "node/5707475823",
        "name": "Hanh Café - Open bus",
        "shop": "travel_agency"
      },
      "geometry": {
        "type": "Point",
        "coordinates": [
          108.2363017,
          16.0557091
        ]
      },
      "id": "node/5707475823"
    },
    {
      "type": "Feature",
      "properties": {
        "@id": "node/5714410121",
        "name:en": "Hung Thanh Travel",
        "shop": "travel_agency"
      },
      "geometry": {
        "type": "Point",
        "coordinates": [
          108.3270532,
          15.8876031
        ]
      },
      "id": "node/5714410121"
    },
    {
      "type": "Feature",
      "properties": {
        "@id": "node/5720847721",
        "shop": "travel_agency"
      },
      "geometry": {
        "type": "Point",
        "coordinates": [
          103.8790593,
          10.3049119
        ]
      },
      "id": "node/5720847721"
    },
    {
      "type": "Feature",
      "properties": {
        "@id": "node/5740151381",
        "name": "Cherolet Gia Lai",
        "shop": "travel_agency"
      },
      "geometry": {
        "type": "Point",
        "coordinates": [
          107.9946058,
          14.0059644
        ]
      },
      "id": "node/5740151381"
    },
    {
      "type": "Feature",
      "properties": {
        "@id": "node/5762588463",
        "addr:housenumber": "123",
        "addr:street": "Trần Hưng Đạo",
        "name": "thiên hưng",
        "phone": "0937820009",
        "shop": "travel_agency"
      },
      "geometry": {
        "type": "Point",
        "coordinates": [
          108.228887,
          16.0802042
        ]
      },
      "id": "node/5762588463"
    },
    {
      "type": "Feature",
      "properties": {
        "@id": "node/5803086155",
        "addr:housenumber": "150",
        "addr:postcode": "650000",
        "addr:street": "Hùng Vương",
        "email": "info@alfatoursvietnam.ru",
        "name": "ALFA TOURS - VĂN PHÒNG 1",
        "name:en": "ALFA TOURS - OFFICE 5",
        "name:ru": "АЛЬФА ТУРС - ОФИС 5",
        "name:vi": "ALFA TOURS - VĂN PHÒNG 5",
        "opening_hours": "Mo-Su 09:00-21:00",
        "phone": "093 162 00 88",
        "shop": "travel_agency",
        "website": "https://alfatoursvietnam.ru/"
      },
      "geometry": {
        "type": "Point",
        "coordinates": [
          109.1954999,
          12.2328335
        ]
      },
      "id": "node/5803086155"
    },
    {
      "type": "Feature",
      "properties": {
        "@id": "node/5818326260",
        "addr:housenumber": "587",
        "addr:street": "Hai Bà Trưng",
        "email": "hoian@thesinhtourist.vn",
        "name": "Sinh tourist",
        "name:en": "The Sinh tourist",
        "name:vi": "The Sinh tourist",
        "opening_hours": "Mo-Su 06:00-22:00",
        "shop": "travel_agency",
        "website": "https://m.thesinhtourist.vn"
      },
      "geometry": {
        "type": "Point",
        "coordinates": [
          108.326004,
          15.8816373
        ]
      },
      "id": "node/5818326260"
    },
    {
      "type": "Feature",
      "properties": {
        "@id": "node/5818327809",
        "name": "Du Lịch Camel Travel",
        "name:de": "Camel Travel",
        "name:en": "Camel Travel",
        "name:vi": "Camel Travel",
        "shop": "travel_agency"
      },
      "geometry": {
        "type": "Point",
        "coordinates": [
          105.8541802,
          21.0085734
        ]
      },
      "id": "node/5818327809"
    },
    {
      "type": "Feature",
      "properties": {
        "@id": "node/5824558153",
        "addr:housenumber": "73",
        "addr:street": "3 Tháng 2",
        "name": "Queen Cafe",
        "name:de": "Queen Cafe",
        "shop": "travel_agency"
      },
      "geometry": {
        "type": "Point",
        "coordinates": [
          108.2197562,
          16.0851822
        ]
      },
      "id": "node/5824558153"
    },
    {
      "type": "Feature",
      "properties": {
        "@id": "node/5832405085",
        "name:en": "Champa Tours",
        "shop": "travel_agency"
      },
      "geometry": {
        "type": "Point",
        "coordinates": [
          104.4834083,
          10.377741
        ]
      },
      "id": "node/5832405085"
    },
    {
      "type": "Feature",
      "properties": {
        "@id": "node/5860819285",
        "addr:housenumber": "13",
        "addr:street": "Tuệ Tĩnh",
        "email": "info@vietnamnomadtrails.com",
        "name:en": "Vietnam nomadtrails",
        "name:fr": "Vietnam nomadtrails",
        "phone": "+84203872192",
        "shop": "travel_agency",
        "website": "https://www.vietnamnomadtrails.com/"
      },
      "geometry": {
        "type": "Point",
        "coordinates": [
          103.8415441,
          22.3341888
        ]
      },
      "id": "node/5860819285"
    },
    {
      "type": "Feature",
      "properties": {
        "@id": "node/5863442185",
        "name:fr": "Ethos",
        "shop": "travel_agency"
      },
      "geometry": {
        "type": "Point",
        "coordinates": [
          103.8333924,
          22.3371478
        ]
      },
      "id": "node/5863442185"
    },
    {
      "type": "Feature",
      "properties": {
        "@id": "node/5867034585",
        "addr:housenumber": "22",
        "addr:street": "Trần Quang Khải",
        "name:en": "Katyusha",
        "name:ru": "Катюша",
        "phone": "+841634982475",
        "shop": "travel_agency"
      },
      "geometry": {
        "type": "Point",
        "coordinates": [
          109.1957763,
          12.2333626
        ]
      },
      "id": "node/5867034585"
    },
    {
      "type": "Feature",
      "properties": {
        "@id": "node/5887599985",
        "name:en": "Dimatour",
        "name:ru": "Дима-тур",
        "shop": "travel_agency"
      },
      "geometry": {
        "type": "Point",
        "coordinates": [
          108.2512357,
          10.9527881
        ]
      },
      "id": "node/5887599985"
    },
    {
      "type": "Feature",
      "properties": {
        "@id": "node/5915198885",
        "addr:housenumber": "47",
        "addr:street": "47 Hoàng Sĩ Khải, An Hải Bắc, Sơn Trà, Đà Nẵng 550000",
        "name:en": "그린투어",
        "shop": "travel_agency"
      },